[
  {
    "name": "Switzerland",
    "lat": 46.8182,
    "lon": 8.2275
  },
  {
    "name": "Hungary",
    "lat": 47.1625,
    "lon": 19.5033
  },
  {
    "name": "Austria",
    "lat": 47.5162,
    "lon": 14.5501
  },
  {
    "name": "Spain",
    "lat": 40.4637,
    "lon": -3.7492
  },
  {
    "name": "Czechia",
    "lat": 49.8175,
    "lon": 15.4730
  },
  {
    "name": "South Korea",
    "lat": 35.9078,
    "lon": 127.7669
  },
  {
    "name": "Taiwan",
    "lat": 23.6978,
    "lon": 120.9605
  },
  {
    "name": "Portugal",
    "lat": 39.3999,
    "lon": -8.2245
  },
  {
    "name": "Scotland",
    "lat": 56.4907,
    "lon": -4.2026
  },
  {
    "name": "England",
    "lat": 52.3555,
    "lon": -1.1743
  },
  {
    "name": "Croatia",
    "lat": 45.1,
    "lon": 15.2000
  },
  {
    "name": "Israel",
    "lat": 31.0461,
    "lon": 34.8516
  },
  {
    "name": "Mexico",
    "lat": 23.6345,
    "lon": -102.5528
  },
  {
    "name": "Belgium",
    "lat": 50.8503,
    "lon": 4.3517
  },
  {
    "name": "Denmark",
    "lat": 56.2639,
    "lon": 9.5018
  },
  {
    "name": "Norway",
    "lat": 60.4720,
    "lon": 8.4689
  },
  {
    "name": "Finland",
    "lat": 61.9241,
    "lon": 25.7482
  },
  {
    "name": "Netherlands",
    "lat": 52.1326,
    "lon": 5.2913
  },
  {
    "name": "Romania",
    "lat": 45.9432,
    "lon": 24.9668
  },
  {
    "name": "Vietnam",
    "lat": 14.0583,
    "lon": 108.2772
  },
  {
    "name": "France",
    "lat": 46.6034,
    "lon": 1.8883
  },
  {
    "name": "Puerto Rico",
    "lat": 18.2208,
    "lon": -66.5901
  },
  {
    "name": "Japan",
    "lat": 36.2048,
    "lon": 138.2529
  }
]
